$GNGGA,031539.000,2519.0885,N,11024.7626,E,1,09,1.0,170.0,M,0.0,M,,*78
$GNGLL,2519.0885,N,11024.7626,E,031539.000,A,A*43
$GPGSA,A,3,15,24,35,21,29,34,13,30,,,,,1.8,1.0,1.5*34
$BDGSA,A,3,07,,,,,,,,,,,,1.8,1.0,1.5*28
$GPGSV,3,1,11,02,34,126,,05,36,050,27,13,63,040,27,15,74,255,27*7D
$GPGSV,3,2,11,20,07,283,,21,22,320,24,24,23,170,30,29,50,253,23*79
$GPGSV,3,3,11,30,06,048,24,34,25,131,28,35,28,166,28*48
$BDGSV,1,1,01,07,05,166,34*5D
$GNRMC,031539.000,A,2519.0885,N,11024.7626,E,0.00,0.00,261118,,,A*79
$GNVTG,0.00,T,,M,0.00,N,0.00,K,A*23
$GNZDA,031539.000,26,11,2018,00,00*4A
$GPTXT,01,01,01,ANTENNA OK*35
$GNGGA,031540.000,2519.0885,N,11024.7626,E,1,09,1.0,170.0,M,0.0,M,,*76
$GNGLL,2519.0885,N,11024.7626,E,031540.000,A,A*4D
$GPGSA,A,3,15,24,35,21,29,34,13,30,,,,,1.8,1.0,1.5*34
$BDGSA,A,3,07,,,,,,,,,,,,1.8,1.0,1.5*28
$GPGSV,3,1,11,02,34,126,,05,36,050,27,13,63,040,27,15,74,255,27*7D
$GPGSV,3,2,11,20,07,283,,21,22,320,21,24,23,170,30,29,50,253,23*7C
$GPGSV,3,3,11,30,06,048,24,34,25,131,28,35,28,166,27*47
$BDGSV,1,1,01,07,05,166,34*5D
$GNRMC,031540.000,A,2519.0885,N,11024.7626,E,0.00,0.00,261118,,,A*77
$GNVTG,0.00,T,,M,0.00,N,0.00,K,A*23
$GNZDA,031540.000,26,11,2018,00,00*44
$GPTXT,01,01,01,ANTENNA OK*35
$GNGGA,031541.000,2519.0885,N,11024.7625,E,1,09,1.0,170.0,M,0.0,M,,*74
$GNGLL,2519.0885,N,11024.7625,E,031541.000,A,A*4F
$GPGSA,A,3,15,24,35,21,29,34,13,30,,,,,1.8,1.0,1.5*34
$BDGSA,A,3,07,,,,,,,,,,,,1.8,1.0,1.5*28
$GPGSV,3,1,11,02,34,126,,05,36,050,27,13,63,040,27,15,74,255,27*7D
$GPGSV,3,2,11,20,07,283,,21,22,320,21,24,23,170,30,29,50,253,23*7C
$GPGSV,3,3,11,30,06,048,26,34,25,131,28,35,28,166,27*45
$BDGSV,1,1,01,07,05,166,34*5D
$GNRMC,031541.000,A,2519.0885,N,11024.7625,E,0.00,0.00,261118,,,A*75
$GNVTG,0.00,T,,M,0.00,N,0.00,K,A*23
$GNZDA,031541.000,26,11,2018,00,00*45
$GPTXT,01,01,01,ANTENNA OK*35
$GNGGA,031542.000,2519.0885,N,11024.7626,E,1,09,1.0,169.9,M,0.0,M,,*75
$GNGLL,2519.0885,N,11024.7626,E,031542.000,A,A*4F
$GPGSA,A,3,15,24,35,21,29,34,13,30,,,,,1.8,1.0,1.5*34
$BDGSA,A,3,07,,,,,,,,,,,,1.8,1.0,1.5*28
$GPGSV,3,1,11,02,34,126,,05,36,050,27,13,63,040,27,15,74,255,27*7D
$GPGSV,3,2,11,20,07,283,,21,22,320,21,24,23,170,30,29,50,253,24*7B
$GPGSV,3,3,11,30,06,048,26,34,25,131,28,35,28,166,27*45
$BDGSV,1,1,01,07,05,166,34*5D
$GNRMC,031542.000,A,2519.0885,N,11024.7626,E,0.00,0.00,261118,,,A*75
$GNVTG,0.00,T,,M,0.00,N,0.00,K,A*23
$GNZDA,031542.000,26,11,2018,00,00*46
$GPTXT,01,01,01,ANTENNA OK*35
$GNGGA,031543.000,2519.0885,N,11024.7626,E,1,09,1.0,169.9,M,0.0,M,,*74
$GNGLL,2519.0885,N,11024.7626,E,031543.000,A,A*4E
$GPGSA,A,3,15,24,35,21,29,34,13,30,,,,,1.8,1.0,1.5*34
$BDGSA,A,3,07,,,,,,,,,,,,1.8,1.0,1.5*28
$GPGSV,3,1,11,02,34,126,,05,36,050,27,13,63,040,27,15,74,255,27*7D
$GPGSV,3,2,11,20,07,283,,21,22,320,21,24,23,170,30,29,50,253,24*7B
$GPGSV,3,3,11,30,06,048,26,34,25,131,28,35,28,166,27*45
$BDGSV,1,1,01,07,05,166,34*5D
$GNRMC,031543.000,A,2519.0885,N,11024.7626,E,0.00,0.00,261118,,,A*74
$GNVTG,0.00,T,,M,0.00,N,0.00,K,A*23
$GNZDA,031543.000,26,11,2018,00,00*47
$GPTXT,01,01,01,ANTENNA OK*35
$GNGGA,031544.000,2519.0885,N,11024.7626,E,1,09,1.0,169.8,M,0.0,M,,*72
$GNGLL,2519.0885,N,11024.7626,E,031544.000,A,A*49
$GPGSA,A,3,15,24,35,21,29,34,13,30,,,,,1.8,1.0,1.5*34
$BDGSA,A,3,07,,,,,,,,,,,,1.8,1.0,1.5*28
$GPGSV,3,1,11,02,34,126,,05,36,050,28,13,63,040,27,15,74,255,27*72
$GPGSV,3,2,11,20,07,283,,21,22,320,21,24,23,170,30,29,50,253,24*7B
$GPGSV,3,3,11,30,06,048,23,34,25,131,28,35,28,166,27*40
$BDGSV,1,1,01,07,05,166,34*5D
$GNRMC,031544.000,A,2519.0885,N,11024.7626,E,0.00,0.00,261118,,,A*73
$GNVTG,0.00,T,,M,0.00,N,0.00,K,A*23
$GNZDA,031544.000,26,11,2018,00,00*40
$GPTXT,01,01,01,ANTENNA OK*35
$GNGGA,031545.000,2519.0885,N,11024.7626,E,1,09,1.0,169.8,M,0.0,M,,*73
$GNGLL,2519.0885,N,11024.7626,E,031545.000,A,A*48
$GPGSA,A,3,15,24,35,21,29,34,13,30,,,,,1.8,1.0,1.5*34
$BDGSA,A,3,07,,,,,,,,,,,,1.8,1.0,1.5*28
$GPGSV,3,1,11,02,34,126,,05,36,050,28,13,63,040,27,15,74,255,27*72
$GPGSV,3,2,11,20,07,283,,21,22,320,23,24,23,170,29,29,50,253,26*73
$GPGSV,3,3,11,30,06,048,23,34,25,131,28,35,28,166,27*40
$BDGSV,1,1,01,07,05,166,34*5D
$GNRMC,031545.000,A,2519.0885,N,11024.7626,E,0.00,0.00,261118,,,A*72
$GNVTG,0.00,T,,M,0.00,N,0.00,K,A*23
$GNZDA,031545.000,26,11,2018,00,00*41
$GPTXT,01,01,01,ANTENNA OK*35
$GNGGA,031546.000,2519.0885,N,11024.7626,E,1,09,1.0,169.8,M,0.0,M,,*70
$GNGLL,2519.0885,N,11024.7626,E,031546.000,A,A*4B
$GPGSA,A,3,15,24,35,21,29,34,13,30,,,,,1.8,1.0,1.5*34
$BDGSA,A,3,07,,,,,,,,,,,,1.8,1.0,1.5*28
$GPGSV,3,1,11,02,34,126,,05,36,050,28,13,63,040,25,15,74,255,27*70
$GPGSV,3,2,11,20,07,283,,21,22,320,23,24,23,170,29,29,50,253,26*73
$GPGSV,3,3,11,30,06,048,23,34,25,131,28,35,28,166,27*40
$BDGSV,1,1,01,07,05,166,34*5D
$GNRMC,031546.000,A,2519.0885,N,11024.7626,E,0.00,0.00,261118,,,A*71
$GNVTG,0.00,T,,M,0.00,N,0.00,K,A*23
$GNZDA,031546.000,26,11,2018,00,00*42
$GPTXT,01,01,01,ANTENNA OK*35
$GNGGA,031547.000,2519.0885,N,11024.7626,E,1,09,1.0,169.7,M,0.0,M,,*7E
$GNGLL,2519.0885,N,11024.7626,E,031547.000,A,A*4A
$GPGSA,A,3,15,24,35,21,29,34,13,30,,,,,1.8,1.0,1.5*34
$BDGSA,A,3,07,,,,,,,,,,,,1.8,1.0,1.5*28
$GPGSV,3,1,11,02,34,126,,05,36,050,28,13,63,040,25,15,74,255,27*70
$GPGSV,3,2,11,20,07,283,,21,22,320,23,24,23,170,29,29,50,253,26*73
$GPGSV,3,3,11,30,06,048,23,34,25,131,28,35,28,166,27*40
$BDGSV,1,1,01,07,05,166,34*5D
$GNRMC,031547.000,A,2519.0885,N,11024.7626,E,0.00,0.00,261118,,,A*70
$GNVTG,0.00,T,,M,0.00,N,0.00,K,A*23
$GNZDA,031547.000,26,11,2018,00,00*43
$GPTXT,01,01,01,ANTENNA OK*35
$GNGGA,031548.000,2519.0885,N,11024.7627,E,1,09,1.0,169.6,M,0.0,M,,*71
$GNGLL,2519.0885,N,11024.7627,E,031548.000,A,A*44
$GPGSA,A,3,15,24,35,21,29,34,13,30,,,,,1.8,1.0,1.5*34
$BDGSA,A,3,07,,,,,,,,,,,,1.8,1.0,1.5*28
$GPGSV,3,1,11,02,34,126,,05,36,050,28,13,63,040,25,15,74,255,27*70
$GPGSV,3,2,11,20,07,283,,21,22,320,23,24,23,170,29,29,50,253,24*71
$GPGSV,3,3,11,30,06,048,23,34,25,131,28,35,28,166,27*40
$BDGSV,1,1,01,07,05,166,34*5D
$GNRMC,031548.000,A,2519.0885,N,11024.7627,E,0.00,0.00,261118,,,A*7E
$GNVTG,0.00,T,,M,0.00,N,0.00,K,A*23
$GNZDA,031548.000,26,11,2018,00,00*4C
$GPTXT,01,01,01,ANTENNA OK*35
$GNGGA,031549.000,2519.0885,N,11024.7627,E,1,09,1.0,169.4,M,0.0,M,,*72
$GNGLL,2519.0885,N,11024.7627,E,031549.000,A,A*45
$GPGSA,A,3,15,24,35,21,29,34,13,30,,,,,1.8,1.0,1.5*34
$BDGSA,A,3,07,,,,,,,,,,,,1.8,1.0,1.5*28
$GPGSV,3,1,11,02,34,126,,05,36,050,28,13,63,040,25,15,74,255,27*70
$GPGSV,3,2,11,20,07,283,,21,22,320,24,24,23,170,29,29,50,253,24*76
$GPGSV,3,3,11,30,06,048,23,34,25,131,28,35,28,166,27*40
$BDGSV,1,1,01,07,05,166,34*5D
$GNRMC,031549.000,A,2519.0885,N,11024.7627,E,0.00,0.00,261118,,,A*7F
$GNVTG,0.00,T,,M,0.00,N,0.00,K,A*23
$GNZDA,031549.000,26,11,2018,00,00*4D
$GPTXT,01,01,01,ANTENNA OK*35
$GNGGA,031550.000,2519.0885,N,11024.7628,E,1,09,1.0,169.4,M,0.0,M,,*75
$GNGLL,2519.0885,N,11024.7628,E,031550.000,A,A*42
$GPGSA,A,3,15,24,35,21,29,34,13,30,,,,,1.8,1.0,1.5*34
$BDGSA,A,3,07,,,,,,,,,,,,1.8,1.0,1.5*28
$GPGSV,3,1,11,02,34,126,,05,36,050,28,13,63,040,25,15,74,255,27*70
$GPGSV,3,2,11,20,07,283,,21,22,320,24,24,23,170,29,29,50,253,24*76
$GPGSV,3,3,11,30,06,048,23,34,25,131,28,35,27,166,27*4F
$BDGSV,1,1,01,07,05,166,34*5D
$GNRMC,031550.000,A,2519.0885,N,11024.7628,E,0.00,0.00,261118,,,A*78
$GNVTG,0.00,T,,M,0.00,N,0.00,K,A*23
$GNZDA,031550.000,26,11,2018,00,00*45
$GPTXT,01,01,01,ANTENNA OK*35
$GNGGA,031551.000,2519.0886,N,11024.7628,E,1,09,1.0,169.2,M,0.0,M,,*71
$GNGLL,2519.0886,N,11024.7628,E,031551.000,A,A*40
$GPGSA,A,3,15,24,35,21,29,34,13,30,,,,,1.8,1.0,1.5*34
$BDGSA,A,3,07,,,,,,,,,,,,1.8,1.0,1.5*28
$GPGSV,3,1,11,02,34,126,,05,36,050,28,13,63,040,24,15,74,255,28*7E
$GPGSV,3,2,11,20,07,283,,21,22,320,24,24,23,170,29,29,50,253,24*76
$GPGSV,3,3,11,30,06,047,23,34,25,131,28,35,27,166,27*40
$BDGSV,1,1,01,07,05,166,34*5D
$GNRMC,031551.000,A,2519.0886,N,11024.7628,E,0.00,0.00,261118,,,A*7A
$GNVTG,0.00,T,,M,0.00,N,0.00,K,A*23
$GNZDA,031551.000,26,11,2018,00,00*44
$GPTXT,01,01,01,ANTENNA OK*35
$GNGGA,031552.000,2519.0886,N,11024.7628,E,1,09,1.0,169.2,M,0.0,M,,*72
$GNGLL,2519.0886,N,11024.7628,E,031552.000,A,A*43
$GPGSA,A,3,15,24,35,21,29,34,13,30,,,,,1.8,1.0,1.5*34
$BDGSA,A,3,07,,,,,,,,,,,,1.8,1.0,1.5*28
$GPGSV,3,1,11,02,34,126,,05,36,050,28,13,63,040,24,15,74,255,28*7E
$GPGSV,3,2,11,20,07,283,,21,22,320,24,24,23,170,29,29,50,253,24*76
$GPGSV,3,3,11,30,06,047,23,34,25,131,28,35,27,166,27*40
$BDGSV,1,1,01,07,05,166,34*5D
$GNRMC,031552.000,A,2519.0886,N,11024.7628,E,0.00,0.00,261118,,,A*79
$GNVTG,0.00,T,,M,0.00,N,0.00,K,A*23
$GNZDA,031552.000,26,11,2018,00,00*47
$GPTXT,01,01,01,ANTENNA OK*35
$GNGGA,031553.000,2519.0886,N,11024.7628,E,1,09,1.0,169.0,M,0.0,M,,*71
$GNGLL,2519.0886,N,11024.7628,E,031553.000,A,A*42
$GPGSA,A,3,15,24,35,21,29,34,13,30,,,,,1.8,1.0,1.5*34
$BDGSA,A,3,07,,,,,,,,,,,,1.8,1.0,1.5*28
$GPGSV,3,1,11,02,34,126,,05,36,050,28,13,62,040,24,15,74,255,28*7F
$GPGSV,3,2,11,20,07,283,,21,22,320,24,24,23,170,30,29,50,253,22*78
$GPGSV,3,3,11,30,06,047,23,34,25,131,28,35,27,166,26*41
$BDGSV,1,1,01,07,05,166,34*5D
$GNRMC,031553.000,A,2519.0886,N,11024.7628,E,0.00,0.00,261118,,,A*78
$GNVTG,0.00,T,,M,0.00,N,0.00,K,A*23
$GNZDA,031553.000,26,11,2018,00,00*46
$GPTXT,01,01,01,ANTENNA OK*35
$GNGGA,031554.000,2519.0886,N,11024.7628,E,1,09,1.0,168.9,M,0.0,M,,*7E
$GNGLL,2519.0886,N,11024.7628,E,031554.000,A,A*45
$GPGSA,A,3,15,24,35,21,29,34,13,30,,,,,1.8,1.0,1.5*34
$BDGSA,A,3,07,,,,,,,,,,,,1.8,1.0,1.5*28
$GPGSV,3,1,11,02,34,126,,05,36,050,27,13,62,040,24,15,74,255,28*70
$GPGSV,3,2,11,20,07,283,,21,22,320,24,24,23,170,30,29,50,253,22*78
$GPGSV,3,3,11,30,06,047,22,34,25,131,28,35,27,166,26*40
$BDGSV,1,1,01,07,05,166,34*5D
$GNRMC,031554.000,A,2519.0886,N,11024.7628,E,0.00,0.00,261118,,,A*7F
$GNVTG,0.00,T,,M,0.00,N,0.00,K,A*23
$GNZDA,031554.000,26,11,2018,00,00*41
$GPTXT,01,01,01,ANTENNA OK*35
$GNGGA,031555.000,2519.0887,N,11024.7629,E,1,09,1.0,168.9,M,0.0,M,,*7F
$GNGLL,2519.0887,N,11024.7629,E,031555.000,A,A*44
$GPGSA,A,3,15,24,35,21,29,34,13,30,,,,,1.8,1.0,1.5*34
$BDGSA,A,3,07,,,,,,,,,,,,1.8,1.0,1.5*28
$GPGSV,3,1,11,02,34,126,,05,36,050,27,13,62,040,25,15,74,255,28*71
$GPGSV,3,2,11,20,07,283,,21,22,320,24,24,23,170,30,29,50,253,22*78
$GPGSV,3,3,11,30,06,047,22,34,25,131,28,35,27,166,26*40
$BDGSV,1,1,01,07,05,166,34*5D
$GNRMC,031555.000,A,2519.0887,N,11024.7629,E,0.00,0.00,261118,,,A*7E
$GNVTG,0.00,T,,M,0.00,N,0.00,K,A*23
$GNZDA,031555.000,26,11,2018,00,00*40
$GPTXT,01,01,01,ANTENNA OK*35
$GNGGA,031556.000,2519.0887,N,11024.7629,E,1,09,1.0,168.7,M,0.0,M,,*72
$GNGLL,2519.0887,N,11024.7629,E,031556.000,A,A*47
$GPGSA,A,3,15,24,35,21,29,34,13,30,,,,,1.8,1.0,1.5*34
$BDGSA,A,3,07,,,,,,,,,,,,1.8,1.0,1.5*28
$GPGSV,3,1,11,02,34,126,,05,36,050,27,13,62,040,25,15,74,255,28*71
$GPGSV,3,2,11,20,07,283,,21,22,320,24,24,23,170,30,29,50,253,22*78
$GPGSV,3,3,11,30,06,047,22,34,25,131,28,35,27,166,26*40
$BDGSV,1,1,01,07,05,166,34*5D
$GNRMC,031556.000,A,2519.0887,N,11024.7629,E,0.00,0.00,261118,,,A*7D
$GNVTG,0.00,T,,M,0.00,N,0.00,K,A*23
$GNZDA,031556.000,26,11,2018,00,00*43
$GPTXT,01,01,01,ANTENNA OK*35
$GNGGA,031557.000,2519.0887,N,11024.7629,E,1,09,1.0,168.5,M,0.0,M,,*71
$GNGLL,2519.0887,N,11024.7629,E,031557.000,A,A*46
$GPGSA,A,3,15,24,35,21,29,34,13,30,,,,,1.8,1.0,1.5*34
$BDGSA,A,3,07,,,,,,,,,,,,1.8,1.0,1.5*28
$GPGSV,3,1,11,02,34,126,,05,36,050,27,13,62,040,25,15,74,255,28*71
$GPGSV,3,2,11,20,07,283,,21,22,320,24,24,23,170,30,29,50,253,22*78
$GPGSV,3,3,11,30,06,047,22,34,25,131,28,35,27,166,26*40
$BDGSV,1,1,01,07,05,166,34*5D
$GNRMC,031557.000,A,2519.0887,N,11024.7629,E,0.00,0.00,261118,,,A*7C
$GNVTG,0.00,T,,M,0.00,N,0.00,K,A*23
$GNZDA,031557.000,26,11,2018,00,00*42
$GPTXT,01,01,01,ANTENNA OK*35
$GNGGA,031558.000,2519.0887,N,11024.7629,E,1,09,1.0,168.4,M,0.0,M,,*7F
$GNGLL,2519.0887,N,11024.7629,E,031558.000,A,A*49
$GPGSA,A,3,15,24,35,21,29,34,13,30,,,,,1.8,1.0,1.5*34
$BDGSA,A,3,07,,,,,,,,,,,,1.8,1.0,1.5*28
$GPGSV,3,1,11,02,34,126,,05,36,050,27,13,62,040,25,15,74,255,28*71
$GPGSV,3,2,11,20,07,283,,21,22,320,24,24,23,170,30,29,50,253,22*78
$GPGSV,3,3,11,30,06,047,22,34,25,131,28,35,27,166,26*40
$BDGSV,1,1,01,07,05,166,34*5D
$GNRMC,031558.000,A,2519.0887,N,11024.7629,E,0.00,0.00,261118,,,A*73
$GNVTG,0.00,T,,M,0.00,N,0.00,K,A*23
$GNZDA,031558.000,26,11,2018,00,00*4D
$GPTXT,01,01,01,ANTENNA OK*35
$GNGGA,031559.000,2519.0888,N,11024.7629,E,1,09,1.0,168.2,M,0.0,M,,*77
$GNGLL,2519.0888,N,11024.7629,E,031559.000,A,A*47
$GPGSA,A,3,15,24,35,21,29,34,13,30,,,,,1.8,1.0,1.5*34
$BDGSA,A,3,07,,,,,,,,,,,,1.8,1.0,1.5*28
$GPGSV,3,1,11,02,34,126,,05,36,050,27,13,62,040,25,15,74,255,28*71
$GPGSV,3,2,11,20,07,283,,21,22,320,24,24,23,170,30,29,50,253,22*78
$GPGSV,3,3,11,30,06,047,22,34,25,131,28,35,27,166,26*40
$BDGSV,1,1,01,07,05,166,34*5D
$GNRMC,031559.000,A,2519.0888,N,11024.7629,E,0.00,0.00,261118,,,A*7D
$GNVTG,0.00,T,,M,0.00,N,0.00,K,A*23
$GNZDA,031559.000,26,11,2018,00,00*4C
$GPTXT,01,01,01,ANTENNA OK*35
$GNGGA,031600.000,2519.0888,N,11024.7629,E,1,09,1.0,168.0,M,0.0,M,,*7A
$GNGLL,2519.0888,N,11024.7629,E,031600.000,A,A*48
$GPGSA,A,3,15,24,35,21,29,34,13,30,,,,,1.8,1.0,1.5*34
$BDGSA,A,3,07,,,,,,,,,,,,1.8,1.0,1.5*28
$GPGSV,3,1,11,02,34,126,,05,36,050,28,13,62,040,24,15,74,255,28*7F
$GPGSV,3,2,11,20,07,283,,21,22,320,24,24,23,170,30,29,50,253,23*79
$GPGSV,3,3,11,30,06,047,23,34,25,131,28,35,27,166,26*41
$BDGSV,1,1,01,07,05,166,33*5A
$GNRMC,031600.000,A,2519.0888,N,11024.7629,E,0.00,0.00,261118,,,A*72
$GNVTG,0.00,T,,M,0.00,N,0.00,K,A*23
$GNZDA,031600.000,26,11,2018,00,00*43
$GPTXT,01,01,01,ANTENNA OK*35
$GNGGA,031601.000,2519.0888,N,11024.7629,E,1,10,0.9,167.8,M,0.0,M,,*7C
$GNGLL,2519.0888,N,11024.7629,E,031601.000,A,A*49
$GPGSA,A,3,15,24,35,21,29,34,13,30,05,,,,1.7,0.9,1.4*37
$BDGSA,A,3,07,,,,,,,,,,,,1.7,0.9,1.4*2E
$GPGSV,3,1,11,02,34,126,,05,35,051,28,13,62,040,24,15,74,255,28*7D
$GPGSV,3,2,11,20,07,283,,21,22,320,24,24,23,170,30,29,50,253,23*79
$GPGSV,3,3,11,30,06,047,23,34,25,131,28,35,27,166,26*41
$BDGSV,1,1,01,07,05,166,33*5A
$GNRMC,031601.000,A,2519.0888,N,11024.7629,E,0.00,0.00,261118,,,A*73
$GNVTG,0.00,T,,M,0.00,N,0.00,K,A*23
$GNZDA,031601.000,26,11,2018,00,00*42
$GPTXT,01,01,01,ANTENNA OK*35
$GNGGA,031602.000,2519.0889,N,11024.7629,E,1,10,0.9,167.7,M,0.0,M,,*71
$GNGLL,2519.0889,N,11024.7629,E,031602.000,A,A*4B
$GPGSA,A,3,15,24,35,21,29,34,13,30,05,,,,1.7,0.9,1.4*37
$BDGSA,A,3,07,,,,,,,,,,,,1.7,0.9,1.4*2E
$GPGSV,3,1,11,02,34,126,,05,35,051,28,13,62,040,24,15,74,255,29*7C
$GPGSV,3,2,11,20,07,283,,21,22,320,24,24,23,170,30,29,50,253,23*79
$GPGSV,3,3,11,30,06,047,23,34,25,131,27,35,27,166,26*4E
$BDGSV,1,1,01,07,05,166,33*5A
$GNRMC,031602.000,A,2519.0889,N,11024.7629,E,0.00,0.00,261118,,,A*71
$GNVTG,0.00,T,,M,0.00,N,0.00,K,A*23
$GNZDA,031602.000,26,11,2018,00,00*41
$GPTXT,01,01,01,ANTENNA OK*35
$GNGGA,031603.000,2519.0889,N,11024.7629,E,1,10,0.9,167.6,M,0.0,M,,*71
$GNGLL,2519.0889,N,11024.7629,E,031603.000,A,A*4A
$GPGSA,A,3,15,24,35,21,29,34,13,30,05,,,,1.7,0.9,1.4*37
$BDGSA,A,3,07,,,,,,,,,,,,1.7,0.9,1.4*2E
$GPGSV,3,1,11,02,34,126,,05,35,051,28,13,62,040,24,15,74,255,29*7C
$GPGSV,3,2,11,20,07,283,,21,22,320,24,24,23,170,29,29,50,253,23*71
$GPGSV,3,3,11,30,06,047,23,34,25,131,27,35,27,166,26*4E
$BDGSV,1,1,01,07,05,166,33*5A
$GNRMC,031603.000,A,2519.0889,N,11024.7629,E,0.00,0.00,261118,,,A*70
$GNVTG,0.00,T,,M,0.00,N,0.00,K,A*23
$GNZDA,031603.000,26,11,2018,00,00*40
$GPTXT,01,01,01,ANTENNA OK*35
$GNGGA,031604.000,2519.0889,N,11024.7629,E,1,10,0.9,167.5,M,0.0,M,,*75
$GNGLL,2519.0889,N,11024.7629,E,031604.000,A,A*4D
$GPGSA,A,3,15,24,35,21,29,34,13,30,05,,,,1.7,0.9,1.4*37
$BDGSA,A,3,07,,,,,,,,,,,,1.7,0.9,1.4*2E
$GPGSV,3,1,11,02,34,126,,05,35,051,28,13,62,040,24,15,74,255,29*7C
$GPGSV,3,2,11,20,07,283,,21,22,320,24,24,23,170,29,29,50,253,23*71
$GPGSV,3,3,11,30,06,047,23,34,25,131,27,35,27,166,26*4E
$BDGSV,1,1,01,07,05,166,33*5A
$GNRMC,031604.000,A,2519.0889,N,11024.7629,E,0.00,0.00,261118,,,A*77
$GNVTG,0.00,T,,M,0.00,N,0.00,K,A*23
$GNZDA,031604.000,26,11,2018,00,00*47
$GPTXT,01,01,01,ANTENNA OK*35
$GNGGA,031605.000,2519.0890,N,11024.7630,E,1,10,0.9,167.4,M,0.0,M,,*75
$GNGLL,2519.0890,N,11024.7630,E,031605.000,A,A*4C
$GPGSA,A,3,15,24,35,21,29,34,13,30,05,,,,1.7,0.9,1.4*37
$BDGSA,A,3,07,,,,,,,,,,,,1.7,0.9,1.4*2E
$GPGSV,3,1,11,02,34,126,,05,35,051,28,13,62,040,24,15,74,255,29*7C
$GPGSV,3,2,11,20,07,283,,21,22,320,24,24,23,170,29,29,50,253,21*73
$GPGSV,3,3,11,30,06,047,23,34,25,131,27,35,27,166,26*4E
$BDGSV,1,1,01,07,05,166,33*5A
$GNRMC,031605.000,A,2519.0890,N,11024.7630,E,0.00,0.00,261118,,,A*76
$GNVTG,0.00,T,,M,0.00,N,0.00,K,A*23
$GNZDA,031605.000,26,11,2018,00,00*46
$GPTXT,01,01,01,ANTENNA OK*35
$GNGGA,031606.000,2519.0890,N,11024.7630,E,1,10,0.9,167.2,M,0.0,M,,*70
$GNGLL,2519.0890,N,11024.7630,E,031606.000,A,A*4F
$GPGSA,A,3,15,24,35,21,29,34,13,30,05,,,,1.7,0.9,1.4*37
$BDGSA,A,3,07,,,,,,,,,,,,1.7,0.9,1.4*2E
$GPGSV,3,1,11,02,34,126,,05,35,051,28,13,62,040,22,15,74,255,29*7A
$GPGSV,3,2,11,20,07,283,,21,22,320,24,24,23,170,29,29,50,253,21*73
$GPGSV,3,3,11,30,06,047,23,34,25,131,27,35,27,166,26*4E
$BDGSV,1,1,01,07,05,166,33*5A
$GNRMC,031606.000,A,2519.0890,N,11024.7630,E,0.00,0.00,261118,,,A*75
$GNVTG,0.00,T,,M,0.00,N,0.00,K,A*23
$GNZDA,031606.000,26,11,2018,00,00*45
$GPTXT,01,01,01,ANTENNA OK*35
$GNGGA,031607.000,2519.0890,N,11024.7630,E,1,10,0.9,167.1,M,0.0,M,,*72
$GNGLL,2519.0890,N,11024.7630,E,031607.000,A,A*4E
$GPGSA,A,3,15,24,35,21,29,34,13,30,05,,,,1.7,0.9,1.4*37
$BDGSA,A,3,07,,,,,,,,,,,,1.7,0.9,1.4*2E
$GPGSV,3,1,11,02,34,126,,05,35,051,28,13,62,040,22,15,74,255,28*7B
$GPGSV,3,2,11,20,07,283,,21,22,320,24,24,23,170,30,29,50,253,21*7B
$GPGSV,3,3,11,30,06,047,23,34,25,131,27,35,27,166,26*4E
$BDGSV,1,1,01,07,05,166,34*5D
$GNRMC,031607.000,A,2519.0890,N,11024.7630,E,0.00,0.00,261118,,,A*74
$GNVTG,0.00,T,,M,0.00,N,0.00,K,A*23
$GNZDA,031607.000,26,11,2018,00,00*44
$GPTXT,01,01,01,ANTENNA OK*35
$GNGGA,031608.000,2519.0890,N,11024.7630,E,1,10,0.9,167.0,M,0.0,M,,*7C
$GNGLL,2519.0890,N,11024.7630,E,031608.000,A,A*41
$GPGSA,A,3,15,24,35,21,29,34,13,30,05,,,,1.7,0.9,1.4*37
$BDGSA,A,3,07,,,,,,,,,,,,1.7,0.9,1.4*2E
$GPGSV,3,1,11,02,34,126,,05,35,051,28,13,62,040,22,15,74,255,28*7B
$GPGSV,3,2,11,20,07,283,,21,22,320,24,24,23,170,30,29,50,253,21*7B
$GPGSV,3,3,11,30,06,047,23,34,25,131,27,35,27,166,25*4D
$BDGSV,1,1,01,07,05,166,34*5D
$GNRMC,031608.000,A,2519.0890,N,11024.7630,E,0.00,0.00,261118,,,A*7B
$GNVTG,0.00,T,,M,0.00,N,0.00,K,A*23
$GNZDA,031608.000,26,11,2018,00,00*4B
$GPTXT,01,01,01,ANTENNA OK*35
$GNGGA,031609.000,2519.0890,N,11024.7630,E,1,10,0.9,167.0,M,0.0,M,,*7D
$GNGLL,2519.0890,N,11024.7630,E,031609.000,A,A*40
$GPGSA,A,3,15,24,35,21,29,34,13,30,05,,,,1.7,0.9,1.4*37
$BDGSA,A,3,07,,,,,,,,,,,,1.7,0.9,1.4*2E
$GPGSV,3,1,11,02,34,126,,05,35,051,28,13,62,040,22,15,74,255,28*7B
$GPGSV,3,2,11,20,07,283,,21,22,320,24,24,23,170,30,29,50,253,21*7B
$GPGSV,3,3,11,30,06,047,23,34,25,131,27,35,27,166,25*4D
$BDGSV,1,1,01,07,05,166,34*5D
$GNRMC,031609.000,A,2519.0890,N,11024.7630,E,0.00,0.00,261118,,,A*7A
$GNVTG,0.00,T,,M,0.00,N,0.00,K,A*23
$GNZDA,031609.000,26,11,2018,00,00*4A
$GPTXT,01,01,01,ANTENNA OK*35
$GNGGA,031610.000,2519.0891,N,11024.7630,E,1,10,0.9,167.0,M,0.0,M,,*74
$GNGLL,2519.0891,N,11024.7630,E,031610.000,A,A*49
$GPGSA,A,3,15,24,35,21,29,34,13,30,05,,,,1.7,0.9,1.4*37
$BDGSA,A,3,07,,,,,,,,,,,,1.7,0.9,1.4*2E
$GPGSV,3,1,11,02,34,126,,05,35,051,28,13,62,040,09,15,74,255,26*7C
$GPGSV,3,2,11,20,07,283,,21,22,320,24,24,23,170,30,29,50,253,21*7B
$GPGSV,3,3,11,30,06,047,24,34,25,131,27,35,27,166,25*4A
$BDGSV,1,1,01,07,05,166,34*5D
$GNRMC,031610.000,A,2519.0891,N,11024.7630,E,0.00,0.00,261118,,,A*73
$GNVTG,0.00,T,,M,0.00,N,0.00,K,A*23
$GNZDA,031610.000,26,11,2018,00,00*42
$GPTXT,01,01,01,ANTENNA OK*35
$GNGGA,031611.000,2519.0891,N,11024.7631,E,1,10,0.9,166.8,M,0.0,M,,*7D
$GNGLL,2519.0891,N,11024.7631,E,031611.000,A,A*49
$GPGSA,A,3,15,24,35,21,29,34,13,30,05,,,,1.7,0.9,1.4*37
$BDGSA,A,3,07,,,,,,,,,,,,1.7,0.9,1.4*2E
$GPGSV,3,1,11,02,34,126,,05,35,051,28,13,62,040,18,15,74,255,26*7C
$GPGSV,3,2,11,20,07,283,,21,22,320,24,24,23,170,30,29,50,253,21*7B
$GPGSV,3,3,11,30,06,047,24,34,25,131,27,35,27,166,25*4A
$BDGSV,1,1,01,07,05,166,34*5D
$GNRMC,031611.000,A,2519.0891,N,11024.7631,E,0.00,0.00,261118,,,A*73
$GNVTG,0.00,T,,M,0.00,N,0.00,K,A*23
$GNZDA,031611.000,26,11,2018,00,00*43
$GPTXT,01,01,01,ANTENNA OK*35
$GNGGA,031612.000,2519.0891,N,11024.7631,E,1,10,0.9,166.8,M,0.0,M,,*7E
$GNGLL,2519.0891,N,11024.7631,E,031612.000,A,A*4A
$GPGSA,A,3,15,24,35,21,29,34,13,30,05,,,,1.7,0.9,1.4*37
$BDGSA,A,3,07,,,,,,,,,,,,1.7,0.9,1.4*2E
$GPGSV,3,1,11,02,34,126,,05,35,051,28,13,62,040,18,15,74,255,26*7C
$GPGSV,3,2,11,20,07,283,,21,22,320,24,24,23,170,30,29,50,253,19*70
$GPGSV,3,3,11,30,06,047,24,34,25,131,27,35,27,166,25*4A
$BDGSV,1,1,01,07,05,166,34*5D
$GNRMC,031612.000,A,2519.0891,N,11024.7631,E,0.00,0.00,261118,,,A*70
$GNVTG,0.00,T,,M,0.00,N,0.00,K,A*23
$GNZDA,031612.000,26,11,2018,00,00*40
$GPTXT,01,01,01,ANTENNA OK*35
$GNGGA,031613.000,2519.0891,N,11024.7631,E,1,10,0.9,166.8,M,0.0,M,,*7F
$GNGLL,2519.0891,N,11024.7631,E,031613.000,A,A*4B
$GPGSA,A,3,15,24,35,21,29,34,13,30,05,,,,1.7,0.9,1.4*37
$BDGSA,A,3,07,,,,,,,,,,,,1.7,0.9,1.4*2E
$GPGSV,3,1,11,02,34,126,,05,35,051,28,13,62,040,18,15,74,255,26*7C
$GPGSV,3,2,11,20,07,283,,21,22,320,24,24,23,170,30,29,50,253,19*70
$GPGSV,3,3,11,30,06,047,24,34,25,131,27,35,27,166,25*4A
$BDGSV,1,1,01,07,05,166,34*5D
$GNRMC,031613.000,A,2519.0891,N,11024.7631,E,0.00,0.00,261118,,,A*71
$GNVTG,0.00,T,,M,0.00,N,0.00,K,A*23
$GNZDA,031613.000,26,11,2018,00,00*41
$GPTXT,01,01,01,ANTENNA OK*35
$GNGGA,031614.000,2519.0891,N,11024.7631,E,1,10,0.9,166.7,M,0.0,M,,*77
$GNGLL,2519.0891,N,11024.7631,E,031614.000,A,A*4C
$GPGSA,A,3,15,24,35,21,29,34,13,30,05,,,,1.7,0.9,1.4*37
$BDGSA,A,3,07,,,,,,,,,,,,1.7,0.9,1.4*2E
$GPGSV,3,1,11,02,34,126,,05,35,051,28,13,62,040,18,15,74,255,26*7C
$GPGSV,3,2,11,20,07,283,,21,22,320,22,24,23,170,30,29,50,253,19*76
$GPGSV,3,3,11,30,06,047,24,34,25,131,27,35,27,166,25*4A
$BDGSV,1,1,01,07,05,166,34*5D
$GNRMC,031614.000,A,2519.0891,N,11024.7631,E,0.00,0.00,261118,,,A*76
$GNVTG,0.00,T,,M,0.00,N,0.00,K,A*23
$GNZDA,031614.000,26,11,2018,00,00*46
$GPTXT,01,01,01,ANTENNA OK*35
$GNGGA,031615.000,2519.0891,N,11024.7631,E,1,10,0.9,166.7,M,0.0,M,,*76
$GNGLL,2519.0891,N,11024.7631,E,031615.000,A,A*4D
$GPGSA,A,3,15,24,35,21,29,34,13,30,05,,,,1.7,0.9,1.4*37
$BDGSA,A,3,07,,,,,,,,,,,,1.7,0.9,1.4*2E
$GPGSV,3,1,11,02,34,126,,05,35,051,28,13,62,040,18,15,74,255,26*7C
$GPGSV,3,2,11,20,07,283,,21,22,320,22,24,23,170,30,29,50,253,19*76
$GPGSV,3,3,11,30,06,047,24,34,25,131,27,35,27,166,25*4A
$BDGSV,1,1,01,07,05,166,34*5D
$GNRMC,031615.000,A,2519.0891,N,11024.7631,E,0.00,0.00,261118,,,A*77
$GNVTG,0.00,T,,M,0.00,N,0.00,K,A*23
$GNZDA,031615.000,26,11,2018,00,00*47
$GPTXT,01,01,01,ANTENNA OK*35
$GNGGA,031616.000,2519.0891,N,11024.7631,E,1,10,0.9,166.7,M,0.0,M,,*75
$GNGLL,2519.0891,N,11024.7631,E,031616.000,A,A*4E
$GPGSA,A,3,15,24,35,21,29,34,13,30,05,,,,1.7,0.9,1.4*37
$BDGSA,A,3,07,,,,,,,,,,,,1.7,0.9,1.4*2E
$GPGSV,3,1,11,02,34,126,,05,35,051,28,13,62,040,18,15,74,255,26*7C
$GPGSV,3,2,11,20,07,283,,21,22,320,22,24,23,170,30,29,50,253,19*76
$GPGSV,3,3,11,30,06,047,24,34,25,131,27,35,27,166,25*4A
$BDGSV,1,1,01,07,05,166,34*5D
$GNRMC,031616.000,A,2519.0891,N,11024.7631,E,0.00,0.00,261118,,,A*74
$GNVTG,0.00,T,,M,0.00,N,0.00,K,A*23
$GNZDA,031616.000,26,11,2018,00,00*44
$GPTXT,01,01,01,ANTENNA OK*35
$GNGGA,031617.000,2519.0892,N,11024.7631,E,1,10,0.9,166.6,M,0.0,M,,*76
$GNGLL,2519.0892,N,11024.7631,E,031617.000,A,A*4C
$GPGSA,A,3,15,24,35,21,29,34,13,30,05,,,,1.7,0.9,1.4*37
$BDGSA,A,3,07,,,,,,,,,,,,1.7,0.9,1.4*2E
$GPGSV,3,1,11,02,34,126,,05,35,051,28,13,62,040,20,15,74,256,26*74
$GPGSV,3,2,11,20,07,283,,21,22,320,22,24,23,170,30,29,50,253,19*76
$GPGSV,3,3,11,30,06,047,24,34,25,131,27,35,27,166,25*4A
$BDGSV,1,1,01,07,05,166,34*5D
$GNRMC,031617.000,A,2519.0892,N,11024.7631,E,0.00,0.00,261118,,,A*76
$GNVTG,0.00,T,,M,0.00,N,0.00,K,A*23
$GNZDA,031617.000,26,11,2018,00,00*45
$GPTXT,01,01,01,ANTENNA OK*35
