$GNGGA,035429.000,2519.0893,N,11024.7624,E,1,12,0.8,166.8,M,0.0,M,,*75
$GNGLL,2519.0893,N,11024.7624,E,035429.000,A,A*42
$GPGSA,A,3,15,24,35,29,34,13,20,05,02,21,,,1.5,0.8,1.3*30
$BDGSA,A,3,07,13,,,,,,,,,,,1.5,0.8,1.3*28
$GPGSV,3,1,10,02,19,138,26,05,28,068,26,13,45,034,16,15,74,332,25*7A
$GPGSV,3,2,10,20,16,296,22,21,36,320,17,24,39,160,41,29,39,229,25*71
$GPGSV,3,3,10,34,31,126,22,35,22,166,31*7D
$BDGSV,1,1,02,07,09,163,35,13,85,244,17*6D
$GNRMC,035429.000,A,2519.0893,N,11024.7624,E,0.00,0.00,261118,,,A*78
$GNVTG,0.00,T,,M,0.00,N,0.00,K,A*23
$GNZDA,035429.000,26,11,2018,00,00*4E
$GPTXT,01,01,01,ANTENNA OK*35
$GNGGA,035430.000,2519.0893,N,11024.7624,E,1,12,0.8,166.8,M,0.0,M,,*7D
$GNGLL,2519.0893,N,11024.7624,E,035430.000,A,A*4A
$GPGSA,A,3,15,24,35,29,34,13,20,05,02,21,,,1.5,0.8,1.3*30
$BDGSA,A,3,07,13,,,,,,,,,,,1.5,0.8,1.3*28
$GPGSV,3,1,10,02,19,138,26,05,28,068,26,13,45,034,16,15,74,333,25*7B
$GPGSV,3,2,10,20,16,296,22,21,36,320,17,24,39,160,41,29,39,229,25*71
$GPGSV,3,3,10,34,31,126,22,35,22,166,31*7D
$BDGSV,1,1,02,07,09,163,35,13,85,244,17*6D
$GNRMC,035430.000,A,2519.0893,N,11024.7624,E,0.00,0.00,261118,,,A*70
$GNVTG,0.00,T,,M,0.00,N,0.00,K,A*23
$GNZDA,035430.000,26,11,2018,00,00*46
$GPTXT,01,01,01,ANTENNA OK*35
$GNGGA,035431.000,2519.0893,N,11024.7624,E,1,12,0.8,166.8,M,0.0,M,,*7C
$GNGLL,2519.0893,N,11024.7624,E,035431.000,A,A*4B
$GPGSA,A,3,15,24,35,29,34,13,20,05,02,21,,,1.5,0.8,1.3*30
$BDGSA,A,3,07,13,,,,,,,,,,,1.5,0.8,1.3*28
$GPGSV,3,1,10,02,19,138,26,05,28,068,27,13,45,034,21,15,74,333,25*7E
$GPGSV,3,2,10,20,16,296,22,21,36,320,17,24,39,160,41,29,39,229,25*71
$GPGSV,3,3,10,34,31,126,22,35,22,166,31*7D
$BDGSV,1,1,02,07,09,163,35,13,85,244,17*6D
$GNRMC,035431.000,A,2519.0893,N,11024.7624,E,0.00,0.00,261118,,,A*71
$GNVTG,0.00,T,,M,0.00,N,0.00,K,A*23
$GNZDA,035431.000,26,11,2018,00,00*47
$GPTXT,01,01,01,ANTENNA OK*35
$GNGGA,035432.000,2519.0893,N,11024.7624,E,1,11,0.8,166.8,M,0.0,M,,*7C
$GNGLL,2519.0893,N,11024.7624,E,035432.000,A,A*48
$GPGSA,A,3,15,24,35,29,34,13,20,05,02,21,,,1.9,0.8,1.7*38
$BDGSA,A,3,07,,,,,,,,,,,,1.9,0.8,1.7*22
$GPGSV,3,1,10,02,19,138,26,05,28,068,27,13,45,034,21,15,74,333,25*7E
$GPGSV,3,2,10,20,16,296,22,21,36,320,17,24,39,160,41,29,39,229,25*71
$GPGSV,3,3,10,34,31,126,22,35,22,166,31*7D
$BDGSV,1,1,02,07,09,163,35,13,85,244,17*6D
$GNRMC,035432.000,A,2519.0893,N,11024.7624,E,0.00,0.00,261118,,,A*72
$GNVTG,0.00,T,,M,0.00,N,0.00,K,A*23
$GNZDA,035432.000,26,11,2018,00,00*44
$GPTXT,01,01,01,ANTENNA OK*35
$GNGGA,035433.000,2519.0893,N,11024.7624,E,1,11,0.8,166.8,M,0.0,M,,*7D
$GNGLL,2519.0893,N,11024.7624,E,035433.000,A,A*49
$GPGSA,A,3,15,24,35,29,34,13,20,05,02,21,,,1.9,0.8,1.7*38
$BDGSA,A,3,07,,,,,,,,,,,,1.9,0.8,1.7*22
$GPGSV,3,1,10,02,19,138,26,05,28,068,27,13,45,034,21,15,74,333,25*7E
$GPGSV,3,2,10,20,16,296,22,21,36,320,17,24,39,160,41,29,39,229,25*71
$GPGSV,3,3,10,34,31,126,22,35,22,166,31*7D
$BDGSV,1,1,02,07,09,163,35,13,85,244,13*69
$GNRMC,035433.000,A,2519.0893,N,11024.7624,E,0.00,0.00,261118,,,A*73
$GNVTG,0.00,T,,M,0.00,N,0.00,K,A*23
$GNZDA,035433.000,26,11,2018,00,00*45
$GPTXT,01,01,01,ANTENNA OK*35
$GNGGA,035434.000,2519.0893,N,11024.7624,E,1,11,0.8,166.8,M,0.0,M,,*7A
$GNGLL,2519.0893,N,11024.7624,E,035434.000,A,A*4E
$GPGSA,A,3,15,24,35,29,34,13,20,05,02,21,,,1.9,0.8,1.7*38
$BDGSA,A,3,07,,,,,,,,,,,,1.9,0.8,1.7*22
$GPGSV,3,1,10,02,19,138,26,05,28,068,27,13,45,034,21,15,74,333,25*7E
$GPGSV,3,2,10,20,16,296,22,21,36,320,17,24,39,160,41,29,39,229,25*71
$GPGSV,3,3,10,34,31,126,22,35,22,166,31*7D
$BDGSV,1,1,02,07,09,163,35,13,85,244,13*69
$GNRMC,035434.000,A,2519.0893,N,11024.7624,E,0.00,0.00,261118,,,A*74
$GNVTG,0.00,T,,M,0.00,N,0.00,K,A*23
$GNZDA,035434.000,26,11,2018,00,00*42
$GPTXT,01,01,01,ANTENNA OK*35
$GNGGA,035435.000,2519.0893,N,11024.7624,E,1,11,0.8,166.8,M,0.0,M,,*7B
$GNGLL,2519.0893,N,11024.7624,E,035435.000,A,A*4F
$GPGSA,A,3,15,24,35,29,34,13,20,05,02,21,,,1.9,0.8,1.7*38
$BDGSA,A,3,07,,,,,,,,,,,,1.9,0.8,1.7*22
$GPGSV,3,1,10,02,19,138,26,05,28,068,27,13,45,034,21,15,74,333,24*7F
$GPGSV,3,2,10,20,16,296,22,21,36,320,17,24,39,160,41,29,39,229,25*71
$GPGSV,3,3,10,34,31,126,22,35,22,166,31*7D
$BDGSV,1,1,02,07,09,163,35,13,85,244,13*69
$GNRMC,035435.000,A,2519.0893,N,11024.7624,E,0.00,0.00,261118,,,A*75
$GNVTG,0.00,T,,M,0.00,N,0.00,K,A*23
$GNZDA,035435.000,26,11,2018,00,00*43
$GPTXT,01,01,01,ANTENNA OK*35
$GNGGA,035436.000,2519.0893,N,11024.7624,E,1,11,0.8,166.8,M,0.0,M,,*78
$GNGLL,2519.0893,N,11024.7624,E,035436.000,A,A*4C
$GPGSA,A,3,15,24,35,29,34,13,20,05,02,21,,,1.9,0.8,1.7*38
$BDGSA,A,3,07,,,,,,,,,,,,1.9,0.8,1.7*22
$GPGSV,3,1,10,02,19,138,26,05,27,068,28,13,45,034,22,15,74,333,24*7C
$GPGSV,3,2,10,20,16,296,22,21,36,320,17,24,39,160,41,29,39,229,25*71
$GPGSV,3,3,10,34,31,126,22,35,22,166,31*7D
$BDGSV,1,1,02,07,09,163,35,13,85,244,*6B
$GNRMC,035436.000,A,2519.0893,N,11024.7624,E,0.00,0.00,261118,,,A*76
$GNVTG,0.00,T,,M,0.00,N,0.00,K,A*23
$GNZDA,035436.000,26,11,2018,00,00*40
$GPTXT,01,01,01,ANTENNA OK*35
$GNGGA,035437.000,2519.0893,N,11024.7624,E,1,11,0.8,166.8,M,0.0,M,,*79
$GNGLL,2519.0893,N,11024.7624,E,035437.000,A,A*4D
$GPGSA,A,3,15,24,35,29,34,13,20,05,02,21,,,1.9,0.8,1.7*38
$BDGSA,A,3,07,,,,,,,,,,,,1.9,0.8,1.7*22
$GPGSV,3,1,10,02,19,138,27,05,27,068,28,13,45,034,22,15,74,333,24*7D
$GPGSV,3,2,10,20,16,296,22,21,36,320,17,24,39,160,41,29,39,229,25*71
$GPGSV,3,3,10,34,31,126,22,35,22,166,31*7D
$BDGSV,1,1,02,07,09,163,35,13,85,244,*6B
$GNRMC,035437.000,A,2519.0893,N,11024.7624,E,0.00,0.00,261118,,,A*77
$GNVTG,0.00,T,,M,0.00,N,0.00,K,A*23
$GNZDA,035437.000,26,11,2018,00,00*41
$GPTXT,01,01,01,ANTENNA OK*35
$GNGGA,035438.000,2519.0893,N,11024.7624,E,1,11,0.8,166.8,M,0.0,M,,*76
$GNGLL,2519.0893,N,11024.7624,E,035438.000,A,A*42
$GPGSA,A,3,15,24,35,29,34,13,20,05,02,21,,,1.9,0.8,1.7*38
$BDGSA,A,3,07,,,,,,,,,,,,1.9,0.8,1.7*22
$GPGSV,3,1,10,02,19,138,27,05,27,068,28,13,45,034,22,15,74,333,24*7D
$GPGSV,3,2,10,20,16,296,22,21,36,320,17,24,39,160,41,29,39,229,25*71
$GPGSV,3,3,10,34,31,126,21,35,22,166,31*7E
$BDGSV,1,1,02,07,09,163,35,13,85,244,21*68
$GNRMC,035438.000,A,2519.0893,N,11024.7624,E,0.00,0.00,261118,,,A*78
$GNVTG,0.00,T,,M,0.00,N,0.00,K,A*23
$GNZDA,035438.000,26,11,2018,00,00*4E
$GPTXT,01,01,01,ANTENNA OK*35
$GNGGA,035439.000,2519.0894,N,11024.7624,E,1,12,0.8,166.8,M,0.0,M,,*73
$GNGLL,2519.0894,N,11024.7624,E,035439.000,A,A*44
$GPGSA,A,3,15,24,35,29,34,13,20,05,02,21,,,1.5,0.8,1.3*30
$BDGSA,A,3,07,13,,,,,,,,,,,1.5,0.8,1.3*28
$GPGSV,3,1,10,02,19,138,27,05,27,068,28,13,45,034,22,15,74,333,24*7D
$GPGSV,3,2,10,20,16,296,22,21,36,320,17,24,39,160,41,29,39,229,25*71
$GPGSV,3,3,10,34,31,126,21,35,22,166,31*7E
$BDGSV,1,1,02,07,09,163,35,13,85,243,21*6F
$GNRMC,035439.000,A,2519.0894,N,11024.7624,E,0.00,0.00,261118,,,A*7E
$GNVTG,0.00,T,,M,0.00,N,0.00,K,A*23
$GNZDA,035439.000,26,11,2018,00,00*4F
$GPTXT,01,01,01,ANTENNA OK*35
$GNGGA,035440.000,2519.0894,N,11024.7624,E,1,12,0.8,166.7,M,0.0,M,,*72
$GNGLL,2519.0894,N,11024.7624,E,035440.000,A,A*4A
$GPGSA,A,3,15,24,35,29,34,13,20,05,02,21,,,1.5,0.8,1.3*30
$BDGSA,A,3,07,13,,,,,,,,,,,1.5,0.8,1.3*28
$GPGSV,3,1,10,02,19,138,27,05,27,068,28,13,45,034,22,15,74,333,24*7D
$GPGSV,3,2,10,20,16,296,22,21,36,320,17,24,39,160,41,29,39,229,25*71
$GPGSV,3,3,10,34,31,126,21,35,22,166,31*7E
$BDGSV,1,1,02,07,09,163,35,13,85,243,21*6F
$GNRMC,035440.000,A,2519.0894,N,11024.7624,E,0.00,0.00,261118,,,A*70
$GNVTG,0.00,T,,M,0.00,N,0.00,K,A*23
$GNZDA,035440.000,26,11,2018,00,00*41
$GPTXT,01,01,01,ANTENNA OK*35
$GNGGA,035441.000,2519.0894,N,11024.7624,E,1,12,0.8,166.7,M,0.0,M,,*73
$GNGLL,2519.0894,N,11024.7624,E,035441.000,A,A*4B
$GPGSA,A,3,15,24,35,29,34,13,20,05,02,21,,,1.5,0.8,1.3*30
$BDGSA,A,3,07,13,,,,,,,,,,,1.5,0.8,1.3*28
$GPGSV,3,1,10,02,19,138,27,05,27,068,28,13,45,034,22,15,74,333,23*7A
$GPGSV,3,2,10,20,16,297,22,21,36,320,17,24,39,160,41,29,39,229,25*70
$GPGSV,3,3,10,34,31,126,21,35,22,166,31*7E
$BDGSV,1,1,02,07,09,163,35,13,85,243,21*6F
$GNRMC,035441.000,A,2519.0894,N,11024.7624,E,0.00,0.00,261118,,,A*71
$GNVTG,0.00,T,,M,0.00,N,0.00,K,A*23
$GNZDA,035441.000,26,11,2018,00,00*40
$GPTXT,01,01,01,ANTENNA OK*35
$GNGGA,035442.000,2519.0894,N,11024.7624,E,1,12,0.8,166.7,M,0.0,M,,*70
$GNGLL,2519.0894,N,11024.7624,E,035442.000,A,A*48
$GPGSA,A,3,15,24,35,29,34,13,20,05,02,21,,,1.5,0.8,1.3*30
$BDGSA,A,3,07,13,,,,,,,,,,,1.5,0.8,1.3*28
$GPGSV,3,1,10,02,19,138,27,05,27,068,28,13,45,034,23,15,74,333,23*7B
$GPGSV,3,2,10,20,16,297,22,21,36,320,17,24,39,160,41,29,39,229,25*70
$GPGSV,3,3,10,34,31,126,21,35,22,166,31*7E
$BDGSV,1,1,02,07,09,163,35,13,85,243,21*6F
$GNRMC,035442.000,A,2519.0894,N,11024.7624,E,0.00,0.00,261118,,,A*72
$GNVTG,0.00,T,,M,0.00,N,0.00,K,A*23
$GNZDA,035442.000,26,11,2018,00,00*43
$GPTXT,01,01,01,ANTENNA OK*35
$GNGGA,035443.000,2519.0894,N,11024.7624,E,1,12,0.8,166.7,M,0.0,M,,*71
$GNGLL,2519.0894,N,11024.7624,E,035443.000,A,A*49
$GPGSA,A,3,15,24,35,29,34,13,20,05,02,21,,,1.5,0.8,1.3*30
$BDGSA,A,3,07,13,,,,,,,,,,,1.5,0.8,1.3*28
$GPGSV,3,1,10,02,19,138,27,05,27,068,28,13,45,034,23,15,74,333,23*7B
$GPGSV,3,2,10,20,16,297,22,21,36,320,17,24,39,160,41,29,39,229,25*70
$GPGSV,3,3,10,34,31,126,21,35,22,166,31*7E
$BDGSV,1,1,02,07,09,163,35,13,85,243,21*6F
$GNRMC,035443.000,A,2519.0894,N,11024.7624,E,0.00,0.00,261118,,,A*73
$GNVTG,0.00,T,,M,0.00,N,0.00,K,A*23
$GNZDA,035443.000,26,11,2018,00,00*42
$GPTXT,01,01,01,ANTENNA OK*35
$GNGGA,035444.000,2519.0894,N,11024.7624,E,1,12,0.8,166.7,M,0.0,M,,*76
$GNGLL,2519.0894,N,11024.7624,E,035444.000,A,A*4E
$GPGSA,A,3,15,24,35,29,34,13,20,05,02,21,,,1.5,0.8,1.3*30
$BDGSA,A,3,07,13,,,,,,,,,,,1.5,0.8,1.3*28
$GPGSV,3,1,10,02,19,138,27,05,27,068,28,13,45,034,23,15,74,333,23*7B
$GPGSV,3,2,10,20,16,297,22,21,36,320,17,24,39,160,41,29,39,229,25*70
$GPGSV,3,3,10,34,31,126,21,35,22,166,31*7E
$BDGSV,1,1,02,07,09,163,35,13,85,243,21*6F
$GNRMC,035444.000,A,2519.0894,N,11024.7624,E,0.00,0.00,261118,,,A*74
$GNVTG,0.00,T,,M,0.00,N,0.00,K,A*23
$GNZDA,035444.000,26,11,2018,00,00*45
$GPTXT,01,01,01,ANTENNA OK*35
$GNGGA,035445.000,2519.0894,N,11024.7624,E,1,12,0.8,166.7,M,0.0,M,,*77
$GNGLL,2519.0894,N,11024.7624,E,035445.000,A,A*4F
$GPGSA,A,3,15,24,35,29,34,13,20,05,02,21,,,1.5,0.8,1.3*30
$BDGSA,A,3,07,13,,,,,,,,,,,1.5,0.8,1.3*28
$GPGSV,3,1,10,02,19,138,27,05,27,068,27,13,45,034,23,15,74,333,23*74
$GPGSV,3,2,10,20,16,297,22,21,36,320,17,24,39,160,41,29,39,229,25*70
$GPGSV,3,3,10,34,31,126,21,35,22,166,31*7E
$BDGSV,1,1,02,07,09,163,35,13,85,243,21*6F
$GNRMC,035445.000,A,2519.0894,N,11024.7624,E,0.00,0.00,261118,,,A*75
$GNVTG,0.00,T,,M,0.00,N,0.00,K,A*23
$GNZDA,035445.000,26,11,2018,00,00*44
$GPTXT,01,01,01,ANTENNA OK*35
$GNGGA,035446.000,2519.0894,N,11024.7624,E,1,12,0.8,166.7,M,0.0,M,,*74
$GNGLL,2519.0894,N,11024.7624,E,035446.000,A,A*4C
$GPGSA,A,3,15,24,35,29,34,13,20,05,02,21,,,1.5,0.8,1.3*30
$BDGSA,A,3,07,13,,,,,,,,,,,1.5,0.8,1.3*28
$GPGSV,3,1,10,02,19,138,27,05,27,068,27,13,45,034,24,15,74,333,23*73
$GPGSV,3,2,10,20,16,297,22,21,36,320,17,24,39,160,40,29,39,229,25*71
$GPGSV,3,3,10,34,31,126,21,35,22,166,31*7E
$BDGSV,1,1,02,07,09,163,35,13,85,243,21*6F
$GNRMC,035446.000,A,2519.0894,N,11024.7624,E,0.00,0.00,261118,,,A*76
$GNVTG,0.00,T,,M,0.00,N,0.00,K,A*23
$GNZDA,035446.000,26,11,2018,00,00*47
$GPTXT,01,01,01,ANTENNA OK*35
$GNGGA,035447.000,2519.0894,N,11024.7624,E,1,12,0.8,166.7,M,0.0,M,,*75
$GNGLL,2519.0894,N,11024.7624,E,035447.000,A,A*4D
$GPGSA,A,3,15,24,35,29,34,13,20,05,02,21,,,1.5,0.8,1.3*30
$BDGSA,A,3,07,13,,,,,,,,,,,1.5,0.8,1.3*28
$GPGSV,3,1,10,02,19,138,27,05,27,068,27,13,45,034,24,15,74,333,23*73
$GPGSV,3,2,10,20,16,297,22,21,36,320,17,24,39,160,40,29,39,229,25*71
$GPGSV,3,3,10,34,31,126,21,35,22,166,31*7E
$BDGSV,1,1,02,07,09,163,35,13,85,243,21*6F
$GNRMC,035447.000,A,2519.0894,N,11024.7624,E,0.00,0.00,261118,,,A*77
$GNVTG,0.00,T,,M,0.00,N,0.00,K,A*23
$GNZDA,035447.000,26,11,2018,00,00*46
$GPTXT,01,01,01,ANTENNA OK*35
